ciudades,lat,lng
Querétaro,20.8542575,-99.84756
Benito Juárez,20.8169666,-98.1782680664942
Zapopan,20.7032055,-103.4261243
San Luis Potosí,22.5000001,-100.5000001
Mérida,20.9670759,-89.6237402
Monterrey,25.63978365,-100.293101629066
Cuauhtémoc,19.4416128,-99.1518637
Alvaro Obregón,19.31815315,-99.2778365837947
Naucalpan de Juárez,19.47436575,-99.2912449087765
Atizapán de Zaragoza,19.56401705,-99.2795355780265
Miguel Hidalgo,19.42961405,-99.1986384564057
Tlalpan,19.2884203,-99.1670508
Huixquilucan,19.37093275,-99.3568074324691
Coyoacán,19.32804005,-99.1510634069359
Puebla,18.833333,-98.0
Guadalajara,20.6720375,-103.3383962
San Andrés Cholula,19.02204645,-98.2872661223453
Cancún,21.1617854,-86.8510468
Cuernavaca,18.9218274,-99.2342282
Chihuahua,28.5000001,-106.0000001
Tlalnepantla de Baz,4410.0,4410.0
Cuautitlán Izcalli,19.6577015,-99.2322829528613
Tlajomulco de Zúñiga,20.474683,-103.446359372419
Gustavo A. Madero,19.51854545,-99.1436344765031
Iztapalapa,19.3428293,-99.046891938467
Cuajimalpa de Morelos,19.3187067,-99.3232029771644
Tijuana,32.5010188,-116.9646629
Hermosillo,29.0948207,-110.9692202
Acapulco de Juárez,16.8680495,-99.8940182
Ecatepec de Morelos,19.5717968,-99.0445353416788
Toluca,19.292545,-99.6569007
Corregidora,20.47781285,-100.44124724158
Durango,24.833333,-104.833333
Metepec,19.25113375,-99.5937281303492
Azcapotzalco,19.4858148,-99.1842057302761
Morelia,19.7027116,-101.1923818
La Magdalena Contreras,19.27547005,-99.2633385835894
Guadalupe,18.0497563,-98.1549402319954
Saltillo,25.4230425,-100.9927509
San Pedro Garza García,25.6651051,-100.4022714
Venustiano Carranza,16.30898425,-92.6379347298267
Aguascalientes,21.8806553,-102.2961323
Torreón,25.5414662,-103.4531977
Pachuca,20.1165413,-98.7413535
León,21.0973352,-101.647642306618
Xochimilco,19.2634938,-99.1033663
Boca del Río,19.11300805,-96.1119502282736
Apodaca,25.7816542,-100.1887501
Tlaquepaque,20.6084288,-103.3151995
Coacalco de Berriozábal,19.6262421,-99.1030069884977
Xalapa,19.5408338,-96.9146374
San Nicolás de los Garza,25.73584235,-100.266494516522
Iztacalco,19.39897535,-99.095311970323
Tampico,22.2329889,-97.8614802
Veracruz,19.333333,-96.666667
Nezahualcóyotl,19.4021151,-99.0170173
La Paz,19.36376855,-98.9463135985561
Tultitlán,19.6168603,-99.1592731209325
San Pedro Cholula,19.07236245,-98.3223472316149
Juárez,17.7006623,-93.1978916620607
Alvarado,18.82867105,-95.9238843132054
Culiacán,24.7978965,-107.393395
Tuxtla Gutiérrez,16.74521845,-93.1418086426027
El Marqués,20.73507785,-100.283576535042
Puerto Vallarta,20.69820775,-105.181524169965
Tonalá,20.6185208,-103.222735910345
Tequisquiapan,20.54221585,-99.9478987274392
Tecámac,19.71171625,-98.9783269318855
Mazatlán,23.2313053,-106.4153144
Los Cabos,23.27184805,-109.689768413063
Cuautitlán,19.70551825,-99.166625687744
Ciudad Madero,22.2783046,-97.8242686088555
Santa Catarina,21.14133975,-100.070929691885
Temixco,18.8476735,-99.2455945082018
San Miguel de Allende,20.9139025,-100.744012
Tepic,21.5044414,-104.8946667
Yautepec,18.86529045,-99.0618808388494
Tláhuac,19.26950425,-99.0040968403251
Bahía de Banderas,20.8288596,-105.317561508363
Gral. Escobedo,23.7501449,-99.1354362
Nicolás Romero,19.63422625,-99.3695564379207
Jiutepec,18.88638935,-99.1701224011532
Emiliano Zapata,19.45696955,-96.7912765618681
Cuautlancingo,19.119366,-98.2491623581376
Playa del Carmen,20.628223,-87.075658
Ixtapaluca,19.32929,-98.8082745040643
San Juan del Río,16.8969181,-96.1473898718872
Mineral de la Reforma,20.06069985,-98.7297430086544
Lerma,19.3263632,-99.4600520175685
Santiago,25.37210935,-100.260652148285
Irapuato,20.6748936,-101.388542263391
Soledad de Graciano Sánchez,22.29705545,-100.867195609264
Huehuetoca,19.82220755,-99.270916418324
Villahermosa,16.2601617,-93.5041703
Centro,18.0271651,-92.7747767595362
Tlaxcala,19.416667,-98.166667
Colima,19.166667,-104.0
Cuautla,20.20360935,-104.4858266661
Valle de Bravo,19.1849101,-100.15126325881
Manzanillo,19.12765695,-104.284125630077
Villa de Alvarez,357.0,357.0
Atlatlahucan,18.9409472,-98.887104547482
Altamira,22.5630208,-98.1165183888334
Xochitepec,18.76533085,-99.2338980708908
Ramos Arizpe,25.540787,-100.9466688
Tultepec,19.678259,-99.1279496197527
Oaxaca de Juárez,17.0965868,-96.7207815690496
Coatzacoalcos,18.1367924,-94.3777591645784
Solidaridad,20.5843747,-87.5034526829675
Jesús María,20.64794705,-102.107573762288
Chalco,19.2382585,-98.8188837639518
Conkal,21.0750611,-89.5291213705516
García,25.8054661,-100.639646752801
San Mateo Atenco,19.26211685,-99.53700898659
Mexicali,32.6248622,-115.448325
Progreso,21.2839331,-89.6638354
Calimaya,19.1685936,-99.6442631329644
Tizayuca,19.85257935,-98.9592702755797
Córdoba,18.92397125,-96.9278108923454
Zumpango,19.81293675,-99.081809533527
Texcoco,16.571667,-97.033333
Medellín,18.99231455,-96.1377404971438
Tepotzotlán,19.7187644,-99.3069331054848
Cajeme,27.71198065,-109.902207535928
Zinacantepec,19.203879,-99.8146045680728
Ahome,191.0,191.0
Celaya,20.5222851,-100.830773928921
Zihuatanejo de Azueta,17.80789995,-101.496952435006
Campeche,19.32920555,-89.9439148263377
Chapala,20.2954814,-103.1898601
Zamora,20.0290033,-102.271268668769
Santa María Huatulco,15.8220916,-96.2059859430558
Fortín,17.948889,-96.178611
Apizaco,19.42643095,-98.0774334464561
Chicoloapan,19.39658025,-98.8699719695884
Gómez Palacio,25.5732473,-103.494779
Uruapan,19.40604335,-102.034290046219
San Cristóbal de las Casas,16.6835469,-92.6155184199116
Xalisco,21.39924215,-104.942177969776
Tarímbaro,19.81627885,-101.163731128413
Ocoyoacac,19.2587373,-99.4177778597142
Atlixco,18.9013708,-98.4531516085337
Reynosa,25.8366364,-98.3708594043181
Tulancingo de Bravo,20.13224105,-98.3167850652369
Carmen,18.4525195,-91.4129738779021
Guanajuato,20.9876996,-101.0
Comalcalco,18.2898889,-93.3207595734744
Chimalhuacán,19.41832985,-98.9561056106901
Huimilpan,20.41881785,-100.33277894298
Ensenada,30.1927661,-115.231462577994
Amozoc,97.0,97.0
Ayala,18.6968614,-98.9799887528544
Pátzcuaro,19.5017457,-101.660280193695
Valle de Chalco Solidaridad,19.2827298,-98.9416647021483
Tlayacapan,18.9435437,-98.9712598268891
El Salto,20.53910005,-103.240377528528
Cadereyta Jiménez,25.517337,-99.8711735172066
Tepeji del Río de Ocampo,19.89368265,-99.3487181526625
Tulum,20.2152358,-87.4295353143922
Jojutla,18.6000251,-99.2299715662039
Acolman,19.6367165,-98.9093023315945
Telchac Puerto,21.342134,-89.263981
Guaymas,28.0738847,-111.01852472776
Coatepec,19.4448572,-96.933628441307
Lerdo,25.47096495,-103.663882192659
Temoaya,19.4893302,-99.5945723803028
San Antonio la Isla,19.1642212,-99.5697775
Arteaga,18.38797895,-102.178567930947
Nogales,18.8346283,-97.2017278013121
Almoloya de Juárez,19.39712725,-99.8216258739699
Zempoala,19.92594405,-98.6433500212643
Nacajuca,18.1783621,-92.9551532239806
Dzemul,21.25172185,-89.3269488190973
Jocotepec,20.28934695,-103.436864576819
Nuevo Laredo,27.4751071,-99.6769171753306
Santa Cruz Xoxocotlán,62.0,62.0
Montemorelos,25.16329245,-99.9036003340764
Chilpancingo de los Bravo,17.3919748,-99.7428629297313
Tepoztlán,18.9914959,-99.1025453272487
Tepatitlán de Morelos,20.81705545,-102.678161394837
Allende,27.03471715,-105.383870313154
Teoloyucan,19.75797385,-99.1730329873416
Huitzilac,19.05862315,-99.232120718479
Gral. Zuazua,24.8320147,-99.5792044
Cozumel,20.4317585,-86.9202745659766
Ixtlahuacán de los Membrillos,20.40302745,-103.205048798085
Villa del Carbón,19.74446355,-99.4520652760428
Ixtapan de la Sal,18.8409773,-99.6929242836454
Yauhquemehcan,19.4034879,-98.180652436189
Zacatecas,23.0000001,-103.0000001
Tapalpa,19.94666345,-103.776105887688
El Arenal,20.7585008,-103.704898474613
Chiautempan,19.28941395,-98.1172510547041
Silao,20.943727,-101.427043
Melchor Ocampo,24.90006295,-101.976605531282
Paraíso,18.3623055,-93.1883586891972
Atizapán,19.1749033,-99.4978504618956
Tuxpan,19.4374898,-103.411470469207
Delicias,28.1227078,-105.468489503811
Lázaro Cárdenas,18.0825417,-102.48267153142
Coronango,42.0,42.0
Navojoa,27.02657005,-109.402266827504
Jacona,19.940849,-102.317487749756
Mazamitla,19.89058415,-103.081020444225
Tenango del Valle,19.0760032,-99.6480906059511
San Pablo Etla,17.155047,-96.7429205648852
Ocoyucan,18.9300722,-98.3217272316645
Tapachula,14.92746,-92.3223122028301
Monclova,26.8999988,-101.4171173
Ezequiel Montes,20.65290435,-99.9083903709065
Othón P. Blanco,18.4375388,-88.8256815051895
Jilotzingo,19.49776855,-99.3955784646521
Tala,20.6100625,-103.707503302719
Hidalgo del Parral,27.11538475,-105.764287997729
Tehuacán,18.46580115,-97.397834799724
Mexicaltzingo,19.2100079,-99.5814237327068
Jilotepec,19.6111499,-96.9052559880419
Milpa Alta,19.138028,-99.0589201721088
Ocotlán,20.3872033,-102.733619248324
Santa Cruz Tlaxcala,19.3611543,-98.1399775074487
Nextlalpan,19.7262794,-99.0788724267725
Yauhquemecan,19.4034879,-98.180652436189
Victoria,23.6889402,-99.1290916955604
Tetla de la Solidaridad,19.49517865,-98.0891302603869
Matamoros,25.554056,-97.4911493545178
Salamanca,29.0,29.0
Amealco de Bonfil,20.18744455,-100.069155218882
Tula de Allende,20.0489487,-99.3729561601143
Ciénega de Flores,25.95332615,-100.187424148864
San Agustín Tlaxiaca,20.076172,-98.9334992878576
Atotonilco de Tula,19.96030475,-99.2368612442778
Comala,19.39542235,-103.783963195084
San Luis Río Colorado,31.9939146,-114.290773141853
Temozón,20.89391415,-88.0728367102334
otra,19.5222139,-96.9248232
Playas de Rosarito,32.25812915,-116.873307225176
San Jacinto Amilpas,17.0934661,-96.7578335394628
Santa Lucía del Camino,17.06772405,-96.6734383149393
Tepetlaoxtoc,19.54918475,-98.7515623318349
Huamantla,19.32333185,-97.9145664896116
Coyame del Sotol,29.73537805,-105.344750706572
Zacatelco,19.19645375,-98.2573551706063
Santa María Atzompa,17.0852576,-96.7926866837619
Poza Rica de Hidalgo,20.53765745,-97.4451247998728
Tlaltizapán,18.6858053,-99.1192531
Atlacomulco,19.81591915,-99.8681193246918
Temascalapa,19.82756725,-98.9006821935161
Jaltenco,19.75385145,-99.093006725978
Cárdenas,18.1693695,-93.7052292124094
San José Iturbide,21.0012598,-100.384479040756
Chicxulub Pueblo,22.0,22.0
Berriozábal,16.87168945,-93.3370761804706
Comitán de Domínguez,16.2911698,-92.1753212427064
Caborca,30.8974875,-112.608001143894
Kanasín,20.9152766,-89.5410056023412
San Martín Texmelucan,19.2659835,-98.4248779545685
ApetatitlAn de Antonio Carvajal,19.3505173,-98.1912020545409
Pesquería,25.74694875,-100.004468434505
Huejotzingo,19.16427705,-98.4392753606702
Apaseo el Grande,20.59193265,-100.597986786366
Huichapan,20.3905629,-99.6821642144064
Guasave,25.5046381,-108.539960314508
San Andrés Huayápam,17.12859905,-96.6672806378177
Tlalmanalco,19.2066075,-98.7323191358236
Yecapixtla,18.8594955,-98.874444342871
Tecate,32.43593355,-116.273657168655
Lagos de Moreno,21.5330301,-101.819957103557
Calpulalpan,19.55201735,-98.6112926770883
Juan C. Bonilla,19.12150465,-98.3474274760699
Teotihuacán,19.69008965,-98.8453681557745
Chiapa de Corzo,16.60132245,-92.9968155874883
Tuxcueca,20.13938285,-103.189393982957
Xonacatlán,19.4415502,-99.4475018581157
Tepeapulco,19.80630105,-98.5060035197625
Piedras Negras,28.7019602,-100.5219222
Chapultepec,16.0,16.0
Malinalco,18.9500577,-99.4973479
Puerto Peñasco,31.5301718,-113.38971892128
Amaxac de Guerrero,19.3780619,-98.2189914715883
Panotla,19.35203485,-98.2806231482021
Totolac,19.3377435,-98.2451149496852
Navolato,24.74899435,-107.756085923032
Cosoleacaque,18.0060183,-94.6174830085876
Pánuco,22.08052495,-98.232957921869
Tecomán,18.9031173,-103.846273007359
Orizaba,18.85923285,-97.1106537405747
Villa de Etla,17.19711095,-96.7962865983407
San Francisco de los Romo,22.0746282,-102.2707133
Coyotepec,18.39581975,-97.8331099037162
Atlautla,19.01618335,-98.7055366662529
Amecameca,19.1200254,-98.7065318136262
Tepetlixpa,19.013929,-98.84230655375
Teziutlán,19.87399265,-97.3715628671056
Salinas Victoria,26.1216805,-100.327087699587
Ixmiquilpan,20.53856895,-99.2011159560729
Papalotla,19.55875195,-98.8573663309471
TlaltizapAn de Zapata,18.7045227,-99.1419173158863
Ixtlahuaca,19.60141875,-99.8132917319539
Minatitlán,17.7052686,-94.3861733339042
Zapotlán de Juárez,19.988115,-98.8434647913474
Banderilla,13.0,13.0
San Pedro Pochutla,15.7914326,-96.4300667347524
Zapotlán el Grande,19.6973465,-103.510648021864
Pueblo Viejo,22.1638426,-97.8985550734824
Tenancingo,19.1504368,-98.1881416917019
Salina Cruz,16.19777885,-95.2131935586196
San Gregorio Atzompa,19.0132036,-98.3422878036835
Tzompantepec,19.38326045,-98.086162281471
Aldama,16.932319,-92.7003142712959
Bacalar,18.6782559,-88.3922556
San Pedro Mixtepec -Dto. 22 -,16.271111,-96.2825
Compostela,21.1137323,-105.038892294765
Ixil,21.22940345,-89.4766584313347
Acambay,19.956357,-99.8435085
Actopan,19.56092075,-96.5291227992801
Zitácuaro,19.4363427,-100.317938804655
José María Morelos,20.2161642,-97.540872513868
Epazoyucan,20.0375553,-98.649349322636
Centla,18.3536762,-92.6521986432691
Morelos,18.75,-99.0
Zapotlanejo,20.6396569,-103.051518558468
Juanacatlán,20.485749,-103.150725406512
Acajete,19.5660993,-97.0470903062051
Atenco,19.54339605,-98.9568614444169
Santa María del Tule,17.0304149,-96.6307597929132
Umán,11.0,11.0
Jaumave,23.4719813,-99.4263583478801
San Sebastián Tutla,17.04450445,-96.6776218266398
Tizimín,21.1428919,-88.1524717
Chiautla,18.28438265,-98.5788791823772
Puente de Ixtla,18.5876232,-99.3125820351238
Apan,19.73175865,-98.4815105416542
La Antigua,19.3176799,-96.3186409251967
Villa Corona,20.38914285,-103.685527154783
Temascaltepec,19.10755855,-99.9488430962109
Chetumal,18.5145865,-88.3005528
Salvador Escalante,19.3909617,-101.663764678616
Santa Cruz Amilpas,17.04758785,-96.6845230263847
Ciudad Valles,22.0757924,-99.0733757727894
Abasolo,24.12763885,-98.2270207821361
Valladolid,20.6902505,-88.2016999
San Juan Bautista Tuxtepec,18.05040725,-96.1144188399534
Villa Guerrero,22.0193796,-103.679051694082
Atitalaquia,20.0597395,-99.213288197313
Ixtacuixtla de Mariano Matamoros,19.34670365,-98.3781581037396
Cerro de San Pedro,22.2000458,-100.761791691295
Rioverde,21.9792678,-100.248197279007
Cadereyta de Montes,20.7912161,-99.6660444473338
Armería,19.009247,-103.981353113803
Dolores Hidalgo Cuna de la Independencia Nacional,21.1049423,-100.913161418544
Colón,9.0,9.0
Linares,24.85300565,-99.4103418037624
Taxco de Alarcón,18.5218084,-99.6065074867117
Motul,21.1653843,-89.3372987034413
San Francisco Lachigoló,17.02797885,-96.5954258214074
Tecozautla,20.5396985,-99.6526085293211
Teolocholco,19.2105781,-98.0760578461402
Comondú,25.44713025,-111.708713181168
Tezoyuca,19.594318,-98.9264096431176
Tlalixtac de Cabrera,17.07729135,-96.6363635890808
San Blas,21.5381431,-105.183877443469
Izúcar de Matamoros,18.50658165,-98.423077788842
Totolapan,18.99638405,-98.9315480115052
Amacuzac,18.5880683,-99.3767724211155
Telchac Pueblo,21.202894,-89.270697
PolotitlAn,20.21212935,-99.8130000085631
Mexquitic de Carmona,22.2548639,-101.180192646292
Ocozocoautla de Espinosa,16.7949938,-93.4583064911153
Nombre de Dios,23.8483984,-104.243564
Huasca de Ocampo,20.2231549,-98.5552467331717
Cunduacán,18.08729035,-93.232135621376
San Agustín Etla,17.20400325,-96.7180817448218
Tonatico,18.77684955,-99.6277107783563
Parras,25.591946,-102.383971320776
Papalotla de Xicohténcatl,19.17162165,-98.1890767111098
Otumba,7.0,7.0
Pedro Escobedo,20.46887135,-100.171626330282
El Oro,19.7959711,-100.066302000554
Hidalgo,20.5,-99.0
Vicente Guerrero,18.5356298,-97.1730005559378
Frontera,18.5321825,-92.6461428
Papantla,20.4173494,-97.3217410153323
Santa Isabel Cholula,18.96817435,-98.390190645579
Santa María Colotepec,15.85317235,-96.939765807417
Contla de Juan Cuamatzi,19.31982705,-98.1442781867718
Sinaloa,25.0000001,-107.5000001
Coyuca de Benítez,17.1782226,-100.025861138908
Mascota,20.5533013,-104.76338164382
Ursulo Galván,19.4460638,-96.397999626556
Uriangato,20.117735,-101.138047708048
Teuchitlán,20.6806057,-103.832786735162
Miacatlán,18.765853,-99.3593994
Jerez,22.7105933,-103.00147264243
Gutiérrez Zamora,20.44028225,-97.1071538089767
Villa Victoria,19.4323473,-99.9603180987687
Aculco,20.1358065,-99.8274673410826
San Bartolo Coyotepec,16.9488631,-96.6931948550559
Mixquiahuala de Juárez,20.23350295,-99.1561422514978
Zacapu,19.83028555,-101.84442148431
Cortazar,20.4220211,-100.930567250311
Tampico Alto,6.0,6.0
Mineral del Chico,20.22059745,-98.7453530145549
Quintana Roo,19.6666671,-88.5000001
Sahuayo,20.04813265,-102.782163690784
San Agustín de las Juntas,16.99073275,-96.6840337773586
Poncitlán,20.2639653,-102.882798554365
Ameca,20.5347004,-104.064660985937
San Martín de las Pirámides,19.7160715,-98.8244866036045
Ozumba,19.0159932,-98.7951311452009
Arroyo Seco,21.4320532,-99.6668354667019
Jantetelco,18.67010935,-98.7566889420485
Jocotitlán,19.7156587,-99.7622278695382
San Lorenzo Cacaotepec,17.1259245,-96.8075313357569
Magdalena Apasco,17.24931555,-96.808326539755
Zacatlán,19.96059515,-98.005721363417
Apaseo el Alto,20.4325631,-100.592152144042
Mineral del Monte,20.14774215,-98.6743222030246
Macuspana,17.8556822,-92.4223905822218
Petatlán,17.63295405,-101.133509436466
La Barca,20.35720795,-102.503270032011
Iguala de la Independencia,18.1923169,-99.6023669533758
Xico,19.4457798,-97.0707568368614
Cihuatlán,19.26328485,-104.604973659399
Capulhuac,19.2171307,-99.4571182524708
AnAhuac,27.32279865,-100.066318409888
Santiago Tulantepec de Lugo Guerrero,6.0,6.0
San Francisco del Rincón,20.92484015,-101.798328776704
Zumpahuacán,18.8085183,-99.5639022305811
Yobaín,21.2852529,-89.120538186637
Nopala de Villagrán,20.23285175,-99.6747169091359
El Llano,21.92866955,-102.000727654503
Arandas,20.74931205,-102.314282211102
San Miguel el Alto,20.99270025,-102.393598131141
Jalpa de Méndez,18.23790195,-93.0787343831472
Huauchinango,20.1782494,-98.0490728107057
Atotonilco el Alto,20.5413692,-102.517566367728
Santiago Papasquiaro,25.02245415,-105.67208873593
Tecolutla,20.41847865,-96.9936370355502
Asientos,22.1321072,-102.095255896189
Meoqui,28.35839415,-105.521525730494
La Magdalena Tlaltelulco,19.27996715,-98.1925345936846
Hunucmá,21.0165566,-89.8765691
Tepetitlán,20.18878255,-99.4010780995547
Jiquipilco,19.5916325,-99.6311743185167
Isidro Fabela,19.5517479,-99.4611185284433
Zacoalco de Torres,20.24409495,-103.593106266552
Pabellón de Arteaga,22.146285,-102.2787712
Cuautepec de Hinojosa,19.97015705,-98.2675486240208
Canatlán,24.529244,-104.7828354
Agua Prieta,31.02545955,-109.042121781579
Pénjamo,5.0,5.0
Teopisca,16.5525849,-92.5234712397913
San Agustín Yatareni,17.0804835,-96.678223168423
Moroleón,20.084423,-101.258458297427
ácaxochitlán,20.16489915,-98.2017623808804
Tolimán,19.5445588,-103.973445499963
Felipe Carrillo Puerto,19.5779548,-88.0459716
González,22.79038735,-98.5763189554293
Champotón,19.12975965,-90.452254448321
Tonanitla,19.67987445,-99.0552154755833
San Felipe,21.4846873,-101.171073523687
Otzolotepec,19.44420975,-99.5228028434866
Acuña,29.425095,-101.935371812865
Palenque,17.45316095,-91.812123071797
San Andrés Tuxtla,18.4633672,-95.1983153392005
Tepezalá,22.2235054,-102.171276
Río Blanco,18.84522475,-97.1522938888273
Pichucalco,17.5093315,-93.1287979799847
Coatzintla,20.4312288,-97.5555272978505
Tlahuapan,19.3511508,-98.5894706202797
Ixtlahuacán del Río,20.90459425,-103.249878053697
Villa de Reyes,21.83475455,-101.004127276677
Magdalena,20.91062025,-104.115853998094
Acatic,20.76878345,-102.920397002543
Francisco I. Madero,20.3122158,-97.17363
Zapotiltic,4.0,4.0
Catemaco,18.435189,-95.0093640002468
Tianguistenco,19.1622428,-99.4616997376388
Villa de Zaachila,16.95290205,-96.7839466213212
Ixtlán del Río,21.02905655,-104.32773695848
Jamapa,18.99063185,-96.2588740325427
Calera,22.97848,-102.856222886116
Isla Mujeres,21.2567112,-86.7461107
Huixtla,15.122125,-92.5039970760447
Tequila,21.1158202,-103.810137060535
San Miguel de Horcasitas,29.4788942,-110.788818147012
Rincón de Romos,22.2293637,-102.3229846
Puente Nacional,19.31371095,-96.5355402788601
Matehuala,23.52290375,-100.604046002583
Chapa de Mota,19.81858015,-99.5346180640987
Tamuín,22.0818969,-98.6931977757173
Cintalapa,16.7522451,-93.8328020256346
Santa María del Río,21.7352338,-100.738270991867
Empalme,28.0030908,-110.661588069502
Jonacatepec,18.65650465,-98.7886068142548
Soyaniquilpan de Juárez,20.05222825,-99.5157106636946
Salvador Alvarado,25.3806885,-107.991754198863
Huimanguillo,17.7620967,-93.6634408051158
Tlaxco,20.4025155,-98.0458946531998
Loreto,22.27393,-101.912555386116
Coroneo,4.0,4.0
Sinanché,21.2676308,-89.1965193587689
Jáltipan,17.8616853,-94.6855050110264
Galeana,24.75744865,-100.381592926391
Cosamaloapan de Carpio,18.28191845,-95.9640811414779
Tantoyuca,21.38968005,-98.1970800493175
Concepción de Buenos Aires,19.9786433,-103.23207433467
Apatzingán,18.9681711,-102.46939679582
Teocelo,19.37322035,-96.9550157616114
Tepeyanco,19.2469178,-98.2253964247985
San Miguel Xoxtla,19.17280915,-98.3050288427109
Tezontepec de Aldama,20.17395565,-99.2886896794868
Rosales,28.2436845,-105.718246644227
San Matías Tlalancaleca,19.350349,-98.4943616925036
Tecali de Herrera,18.8983165,-97.9854169051884
Sucilá,21.21049655,-88.3814605723711
Fresnillo,23.2249237,-103.016289071469
Tecamachalco,18.8640574,-97.7282333855502
San Juan Bautista Guelache,17.23920465,-96.750688741433
Tequixquiac,19.8935209,-99.1671164355841
Cotaxtla,18.85765725,-96.350999057041
Cananea,30.9826994,-110.210118523641
Chapantongo,20.24410965,-99.519461035348
Cocula,20.4035811,-103.81742103058
Purísima del Rincón,20.9410576,-101.906098619485
ácatlán de Juárez,3.0,3.0
Natívitas,19.23016575,-98.3379402525353
Cuzamá,20.7130784,-89.3573565338373
Atempan,19.8018134,-97.4419200418563
Cosío,22.3664033,-102.3003739
Tekax,20.2053417,-89.2852029
Cuilápam de Guerrero,17.00253695,-96.7870609511712
Etzatlán,20.7612209,-104.130631081613
Tlacolula de Matamoros,16.9314623,-96.4611074593091
Tetecala,18.68782235,-99.4156090324867
Chapulco,18.64659155,-97.410463083225
ácámbaro,20.07084755,-100.744744458188
Tlatlauquitepec,19.83864055,-97.5057372570162
Coscomatepec,19.05915005,-97.0995339010126
Chiconcuac,19.5450812,-98.8948341130416
La Piedad,20.671111,-97.353056
Axochiapan,18.52456425,-98.7602628892417
Salinas,22.8228965,-101.724509014419
Chiquilistlán,20.0801076,-103.881578525591
Guerrero,17.666667,-100.0
Casas Grandes,30.20776175,-108.227753525723
Ahualulco,22.4725329,-101.199332121296
Tenango del Aire,19.1571674,-98.8606929
Martínez de la Torre,20.1197165,-97.0461646766573
Santiago Ixcuintla,21.959108,-105.551989496097
Temamatla,3.0,3.0
Calvillo,21.8465121,-102.7185731
Santo Domingo Tehuantepec,16.18895985,-95.3960273067855
Tepeaca,19.0179189,-97.8846333060646
Perote,19.51086405,-97.2685344806973
Cerralvo,26.0604924,-99.7571574468061
Erongarícuaro,19.6149445,-101.727513642027
Cerro Azul,21.17865905,-97.7561168203829
Calkiní,20.4806239,-90.3549619297626
Tamazunchale,21.24350145,-98.7968695967446
Xaloztoc,19.41230005,-98.0425485253983
Rafael Lucio,19.5997278,-96.9848433795754
Castaños,26.79433,-101.428704
Zacatepec,18.65059575,-99.2030775484021
Tangancícuaro,19.8734565,-102.294189172152
Tempoal,21.55025445,-98.4204925178308
Escárcega,18.57969185,-90.7608720284323
San Cristóbal de la Barranca,21.04633565,-103.512392354772
Dr. Arroyo,23.80420455,-100.225663498075
Xalatlaco,19.1659687,-99.3719220148087
Sayula,19.8571638,-103.608895694367
Tlalnepantla,19.0297838,-98.9858196354658
Atemajac de Brizuela,20.1795227,-103.740599986531
Camerino Z. Mendoza,18.7896308,-97.1599321403411
Maravatío,19.89014525,-100.453273184341
Ecuandureo,3.0,3.0
San Pablo Villa de Mitla,16.9675629,-96.318246627325
San Luis de la Paz,21.38085245,-100.481803715332
Heroica Ciudad de Huajuapan de León,17.84729795,-97.8775393610583
Atotonilco el Grande,20.2866923,-98.6682381
Manlio Fabio Altamirano,19.08652815,-96.3189627983779
Guadalupe Victoria,19.30735175,-97.403054992521
Nautla,20.1227684,-96.8011531619173
Celestún,20.8604208,-90.3994361
Acayucan,18.0281048,-95.0359381813921
San Joaquín,20.9990848,-99.4913184815176
Casas,23.54317615,-98.6678518013201
Lagunillas,19.57338595,-101.421317604935
San Antonio de la Cal,17.0281507,-96.6956230941584
Tolcayuca,19.96496105,-98.9301894350651
San Sebastián del Oeste,20.85525095,-104.816535640329
Amanalco,19.25568945,-99.9871476570157
Teapa,17.6197305,-92.9729413409689
Tecolotlán,20.2758086,-103.982255233699
Ahuacatlán,20.02834465,-97.8546373199356
Tototlán,20.5374256,-102.749416904787
Agua Dulce,18.0899541,-94.1623630522383
Acaponeta,22.4604948,-105.24857207602
Jerécuaro,20.1847705,-100.543401490537
San Raymundo Jalpan,16.98049015,-96.7551972055115
Dr. González,2.0,2.0
Mulegé,27.20305225,-113.320727367548
Jiquilpan,19.9674259,-102.75185551525
Tocumbo,19.6775568,-102.55708998773
Chignahuapan,19.8213915,-98.1177571460357
Cuetzalan del Progreso,20.0272192,-97.4938535277312
Aconchi,29.7837315,-110.246637121827
Los Ramones,25.6544381,-99.5974343046752
Huaquechula,18.7568779,-98.5252048862026
Cansahcab,21.1676008,-89.0659609112126
Hopelchén,19.5392663,-89.6207175459767
Dzidzantún,21.2891932,-89.0362854842481
Cuerámaro,20.615283,-101.671253391535
Oluta,17.89593375,-94.9048683102507
San Jerónimo Tlacochahuaya,17.0180061,-96.5449800726632
Atlangatepec,19.5468001,-98.186544524478
Xicotepec,20.3314624,-97.9056009496246
Ixtlahuacán,18.95812855,-103.685820389626
Pánuco de Coronado,24.5059958,-104.362264491935
Progreso de Obregón,20.30448025,-99.1808909624546
Camarón de Tejeda,19.0029948,-96.5512227153467
Colotlán,22.1118391,-103.2668332
Tzucacab,19.92195995,-89.0086957854902
Oriental,19.32777205,-97.5646306407857
Cuitzeo,19.9879055,-101.113636130792
Jonuta,2.0,2.0
Camargo,26.1812678,-98.8628524710301
Acatzingo,19.03018325,-97.7637600302819
Los Herreras,25.94092355,-99.4338854618893
Nadadores,27.0270256,-101.5933218
Tejupilco,18.8907522,-100.127662417265
Ruíz,22.0163591,-104.876788131461
Timilpan,19.92238075,-99.6883925340765
Chilchota,19.80558375,-102.110746360142
Coatepec Harinas,18.93968615,-99.8042877331282
Ucú,21.08602565,-89.7799734076693
Quiroga,19.70771635,-101.568701678385
Ahualulco de Mercado,20.71035375,-103.975394384736
Ixtapan del Oro,19.2622941,-100.2639356
Amatlán de los Reyes,18.87251165,-96.8685723968666
Salvatierra,20.1926546,-100.865993132548
Ciudad Ixtepec,16.6165531,-95.0784726633916
Contepec,19.9608742,-100.204934491189
Xaltocan,19.4193074,-98.2448522403255
Marín,25.8861426,-100.02331501783
El Espinal,16.4609135,-95.0581833048718
Tecuala,22.3477475,-105.490305906474
San Felipe del Progreso,19.64919735,-99.9701879537965
Alamo Temapache,20.9951932,-97.7557841914083
Nanchital de Lázaro Cárdenas del Río,18.06603875,-94.381529637712
Tamiahua,2.0,2.0
Rosario,28.04103125,-109.351410886921
Reforma,17.8688698,-93.2372192959907
Rayones,25.075242,-100.143979577791
Coquimatlán,19.1759779,-103.923913357187
El Fuerte,26.236965,-108.66122675271
Villa de Arriaga,21.98174655,-101.213565561355
Hoctún,20.8861458,-89.1832265469958
San Ignacio,23.92493515,-106.275307269238
Técpan de Galeana,17.40108345,-100.750561931001
La Trinitaria,15.97979495,-91.9918065291299
Jaral del Progreso,20.36447955,-101.061875246493
Dzitás,20.8328098,-88.527855842936
Tlacotalpan,18.52076065,-95.6230404402794
Chalchicomula de Sesma,18.9833333,-97.45
Huandacareo,19.99423035,-101.26915278085
Zaragoza,17.94751565,-94.6351062802347
Opichén,20.5512658,-89.856488
TacAmbaro,19.24997155,-101.451983469204
Abejones,17.4893087,-96.6198781801473
Huatabampo,26.6048776,-109.232088441425
Ciudad Fernández,21.99096225,-100.048528435411
Singuilucan,19.99755215,-98.4912373528498
Río Lagartos,21.5981156,-88.1572956
Xicohtzinco,19.1723769,-98.2378662497253
General Cepeda,2.0,2.0
Mariano Escobedo,18.92615555,-97.2165558435631
Encarnación de Díaz,21.56799925,-102.18302776675
Lerdo de Tejada,18.6592806,-95.4900440103681
Santa Isabel,28.3053903,-106.341868436442
Nahuatzen,19.64975435,-101.877394703764
Ixtlán,20.1479407,-102.417503587473
San Pablo del Monte,19.16096315,-98.1294455844424
Sabinas Hidalgo,26.5749243,-100.155030331045
China,25.4915799,-98.9811115045569
Gral. Treviño,25.6491637,-100.0940717
Nazareno Etla,17.18165875,-96.8286431317519
Ajacuba,20.10671175,-99.0707609794149
Acuitzio,19.4715657,-101.325993590706
Chilapa de Alvarez,17.49055305,-99.1322116376929
Balleza,26.7000976,-106.499095426892
Cuautitlán de García Barragán,19.4606434,-104.264448993719
Timucuy,20.74137515,-89.5734197546203
Tlalixcoyan,18.7731685,-96.2058864695668
Sultepec,18.72126315,-99.9934620961256
Alamos,27.0828453,-108.923523186667
Santa Ana,16.32853865,-96.7237589311343
Santa Isabel Xiloxoxtla,19.2635018,-98.2071064375707
Tzintzuntzan,19.61111475,-101.540736119581
Atengo,20.3203431,-104.281026143063
Ahuazotepec,1.0,1.0
Tuxtla Chico,14.8768619,-92.1967524545976
Rafael Lara Grajales,19.2658861,-97.828095272716
Tepalcatepec,19.07915515,-102.849997667583
ácatlán,19.6888172,-96.8435454688161
Zináparo,20.17831275,-102.011458020735
Peribán,19.4941114,-102.456010692272
Urique,27.2190597,-107.982659487227
San José de Gracia,22.1468069,-102.4127811
Soto la Marina,23.87502135,-98.0511887694181
Santiago Tuxtla,18.4054031,-95.3980661308721
Panindícuaro,20.01814005,-101.767515916896
Alto Lucero de Gutiérrez Barrios,19.728509,-96.5315776404476
Tihuatlán,20.68287745,-97.4867981487634
Calcahualco,19.10073115,-97.2279829836342
Cantamayec,20.41310135,-89.0571222717892
Acuamanala de Miguel Hidalgo,19.2162149,-98.1612104623737
Gral. Bravo,25.6790524,-100.1952476
Chilchotla,19.25586515,-97.2104899888116
Charo,19.6691789,-101.003217357158
Comonfort,20.73708895,-100.797320090149
CopAndaro,19.9167161,-101.218167169504
Ecatzingo,18.968413,-98.7396358008316
Altotonga,19.764922,-97.1280745126907
Santa Ana Nopalucan,19.29344805,-98.3284327880896
General Plutarco Elías Calles,1.0,1.0
Ocuilan,19.0013312,-99.3950158203093
Pisaflores,21.2312006,-98.9916397205412
Ayapango,19.1268995,-98.8020936
Temax,21.17308935,-88.8916751185805
Villagrán,24.58791615,-99.3106413213405
Gustavo Díaz Ordaz,26.1381316,-98.6419237028352
Yaxcabá,20.4845653,-88.7867301458818
Cuaxomulco,19.34513965,-98.0951442196397
El Mante,22.60787365,-98.9353414059303
Saucillo,28.0116294,-105.29187257314
Zinapécuaro,19.8563181,-100.770909712988
Gómez Farías,19.8597509,-103.410189917278
Cedral,23.9463868,-100.685418007706
Paracho,19.654276,-102.059609880705
El Barrio de la Soledad,16.80174195,-95.0536541116869
San Pedro Mixtepec -Dto. 26 -,16.271111,-96.2825
Villaldama,26.470747,-100.370706373256
San Pablo Huitzo,17.3152916,-96.860883416091
ZirAndaro,18.32842225,-101.2035992259
San Felipe Orizatlán,21.2460975,-98.5590902243566
San Juan Guelavía,16.960232,-96.5401490934834
Santa María Apazco,17.6259837,-97.0793982980638
Ixhuatlancillo,18.8930394,-97.1672499522122
Tepetitla de Lardizábal,19.28282235,-98.3759797234636
Tepechitlán,1.0,1.0
Chignautla,19.75708585,-97.418932311827
Tixmehuac,20.2483279,-89.0849603526443
Miahuatlán,19.73114595,-96.8826522592833
áutlán de Navarro,19.75703,-104.318340155487
Cocotitlán,19.22765685,-98.8598666257244
Muna,20.9059882,-89.2393913
Yaxkukul,21.0619449,-89.4188782
Juchitán de Zaragoza,16.4333347,-95.019444
San Francisco de Borja,27.8913673,-106.713189878226
Villa de Tezontepec,19.91440235,-98.80031127294
Escuinapa,22.7195146,-105.702228011033
Molango de Escamilla,20.84851975,-98.7626437531232
Poanas,24.03490925,-104.08765135355
Juárez Hidalgo,20.83589725,-98.8351247535594
Tenamaxtlán,20.13542195,-104.142613125049
Bocoyna,27.8147924,-107.552240336103
Huehuetlán,21.51685205,-98.9919520999781
Pinotepa de Don Luis,16.4025937,-97.9608436238504
Nopaltepec,19.80036605,-98.7262425354784
Ocosingo,16.6577062,-91.1930789905916
Texcaltitlán,18.9410598,-99.9403715716659
San Pedro de la Cueva,29.27809665,-109.68565976802
Chahuites,16.27605915,-94.2046205877097
Aquila,18.78830495,-97.3239169581422
Quitupan,1.0,1.0
Jungapeo,19.4115069,-100.528557005655
Aramberri,24.22172555,-99.9241345206951
Huajicori,22.81082405,-105.203272471014
Huetamo,18.65971875,-101.140263424977
Tianguismanalco,19.0000673,-98.4977641124155
Chínipas,27.39509965,-108.495555127811
Tamazula de Gordiano,19.6853653,-103.170067010115
Donato Guerra,19.31883025,-100.122604569475
Santiago Suchilquitongo,17.2315835,-96.9058766137971
Santa Cruz de Juventino Rosas,20.6831263,-100.959072514605
Ciudad del Maíz,22.43093055,-99.7047331166653
Comapa,19.14157615,-96.664246891316
Mayapán,20.62916885,-89.4602703588655
Rayón,17.1851994,-92.998920935853
Asunción Ixtaltepec,16.64421025,-94.9286350004164
Valle Hermoso,25.78237925,-97.8349847924059
Sanctórum de Lázaro Cárdenas,19.5513192,-98.4161349278349
San Salvador el Verde,19.2583335,-98.5239745942786
Sudzal,20.78449255,-88.83209945909
Atoyac de Alvarez,17.31055885,-100.342569783318
Namiquipa,29.1625481,-107.347438610074
Ciénega de Zimatlán,16.89311155,-96.7664091813847
San Rafael,20.21396265,-96.8992917535312
Hueyotlipan,19.47959175,-98.330136354759
Almoloya de Alquisiras,1.0,1.0
Santiago Miahuatlán,18.5503968,-97.4477267440186
Tarimoro,20.2929034,-100.754016538708
Moctezuma,29.748798,-109.707885848671
Copala,16.624393,-98.9403918689237
Tochtepec,18.8182814,-97.8226712223094
Homún,20.66457385,-89.2374548984068
Bella Vista,15.6230496,-92.2322956065228
Sabinas,27.8524011,-101.1183777
Acateno,20.1003632,-97.2151725804214
San Mateo Río Hondo,16.0994661,-96.5699934858337
Villa Corzo,16.13704545,-93.2613659618545
Huatusco,19.1456268,-96.9655040729127
Tetlatlahuca,19.23258555,-98.2872314382885
Zimapán,20.7622177,-99.383140107743
Jalpan de Serra,21.38414085,-99.3264604453983
San José del Rincón,24.9256326,-104.4614451
San Fernando,16.9134645,-93.2203812018791
Catazajá,17.76826375,-92.0379312528531
La Huacana,18.8495716,-101.853700732902
Mina,26.2993869,-100.802504587014
Cuquío,20.94949235,-103.031424580442
Tetiz,20.9562794,-90.0519342612584
Tetepango,20.10930765,-99.158465535326
Izamal,20.933072,-89.017001
Jalapa,1.0,1.0
Teabo,20.38070885,-89.2127092849575
Dzoncauich,21.0952977,-88.8265440718671
Ocotlán de Morelos,16.78469895,-96.6681764557339
Totoltepec de Guerrero,18.2833377,-97.8523548204976
Los Reyes,18.6719848,-97.0414256697302
Huautla de Jiménez,18.148157,-96.8007206555153
PuruAndiro,20.1194479,-101.54067288572
Indaparapeo,19.760416,-100.942925053106
Elota,24.03077915,-106.86246730262
Almoloya,19.7381962,-98.3157784028403
Temascalcingo,19.9311395,-100.049173941988
Cacalchén,20.98359715,-89.2431554277343
Axapusco,19.76622355,-98.7981576056722
Ixtaczoquitlán,18.85134015,-97.0271108278912
Tixtla de Guerrero,17.609185,-99.3684382177002
San Gabriel,19.703787,-103.747880442258
Abalá,20.66019925,-89.6553256977614
Villa Purificación,19.82320785,-104.732737791144
Villa de Cos,23.52908945,-102.11732959724
Zacualpan,20.50470375,-98.3557886884289
Tlalpujahua,19.78378475,-100.21511130782
Mapastepec,15.44688245,-92.9153761662097
Calotmul,20.99820415,-88.1448781751513
Ascensión,31.2674321,-107.570065924116
Uayma,1.0,1.0
San Felipe Teotlalcingo,19.2332366,-98.5220448140932
Villaflores,16.37550225,-93.3589333592039
Miahuatlán de Porfirio Díaz,16.3610815,-96.5850511538718
Dr. Belisario Domínguez,27.99331185,-106.536623040386
Teteles de Avila Castillo,19.8517376,-97.445720938338
Iturbide,24.64172985,-99.8479606622252
Pijijiapan,15.65367405,-93.1366253011322
Tetela del Volcán,18.918346,-98.7201524960986
Purépero,19.91055285,-102.010533277786
Paso de Ovejas,19.25749525,-96.4376454708639
Santa María del Oro,19.5254405,-102.868112962307
Ojinaga,29.545625,-104.587110091305
Reyes Etla,17.2095476,-96.8240390989866
Asunción Cacalotepec,17.03831885,-95.9285278077991
Las Choapas,17.56348585,-93.9400086353229
Ures,29.35820725,-110.322957433871
Tahmek,20.9004139,-89.2795536217752
Naranjos Amatlán,21.3093326,-97.6760013002664
Coahuayana,18.75863645,-103.596914667356
áyotlán,20.47223855,-102.364129287815
Angostura,25.1221992,-108.151126580031
Lamadrid,27.0513294,-101.7950492
Villanueva,22.33530125,-102.843352645637
Concordia,23.4210982,-105.956149607331
Almoloya del Río,1.0,1.0
Higueras,26.0355173,-100.00738825697
Yahualica de González Gallo,21.123411,-102.951371911696
Mazatepec,18.6875552,-99.358446666722
Nochistlán de Mejía,21.436113,-102.827266181745
Palizada,18.2622565,-92.0026441704793
Atoyac,20.00695775,-103.4472816918
Nuevo Ideal,24.8878603,-105.072073
Balancán,17.7945928,-91.3466455059091
Aquismón,21.7481115,-99.0635804194888
Santo Tomás,28.6828122,-107.5739669
Batopilas,26.92450565,-107.667331578553
Yuriria,20.16649235,-101.31713413181
Río Grande,23.8126704,-103.051298503797
Jala,21.2025645,-104.445031757555
Jalcomulco,19.33507155,-96.7527204001385
Misantla,19.95910085,-96.8580622645837
Santa Cruz Acatepec,18.15840185,-96.8824652731001
Jiménez,24.21155165,-98.5139019806096
Buctzotz,21.2127744,-88.6461859243543
Pinal de Amoles,21.16650525,-99.6233214080092
Tinum,20.7412144,-88.4437373154445
Heroica Ciudad de Juchitán de Zaragoza,16.413329,-94.9118791318112
Cazones de Herrera,20.70926465,-97.2938691251381
Suma,21.1085459,-89.1605185802348
Tlaquiltenango,1.0,1.0
Tizapán el Alto,20.10729135,-103.098381659393
Unión de San Antonio,21.1576146,-102.000801287062
Zimatlán de Alvarez,16.87275355,-96.8013146358152
Omealca,18.70904465,-96.6759400121995
Tlanalapa,19.82854825,-98.6125377748392
Marqués de Comillas,16.2747814,-90.7179456044022
San Pedro,20.0086511,-97.1104272
Sombrerete,23.57451835,-103.646828458938
Atoyatempan,18.80427965,-97.9079213678775
Mainero,24.600186,-99.5578662235125
San Jerónimo Tecuanipan,19.0388386,-98.4122332487663
San Lucas,16.62792675,-92.7422107117313
Epitacio Huerta,20.14291355,-100.302140176586
Chavinda,20.0473256,-102.435159290934
Nanacamilpa de Mariano Arista,19.5080315,-98.5432407645627
Ocampo,22.84361195,-99.3299095097768
Villa de Allende,19.4059121,-99.0338464
El Grullo,19.79554805,-104.177816498184
Suchiapa,16.5946329,-93.1269515858845
Apazapan,19.34335875,-96.6947338738441
